[{"id":"1447584788069","name":"Popsical: A Family Concert in Newport Beach","location":{"address":"2240 University Drive, Newport Beach, CA 92660","latitude":"33.6544261","longitude":"-117.8830833"}},{"id":"1347129463489","name":"Popsical: A Family Concert in Newport Beach","location":{"address":"2240 University Drive, Newport Beach, CA 92660","latitude":"33.6544261","longitude":"-117.8830833"}},{"id":"1410933984529","name":"Popsical: A Family Concert in Sherman Oaks","location":{"address":"4302 Van Nuys Boulevard, Los Angeles, CA 91403","latitude":"34.1492068","longitude":"-118.4489238"}},{"id":"1410933984529","name":"Popsical: A Family Concert in Sherman Oaks","location":{"address":"4302 Van Nuys Boulevard, Los Angeles, CA 91403","latitude":"34.1492068","longitude":"-118.4489238"}},{"id":"1429080009779","name":"Popsical: A Family Concert in Santa Clarita","location":{"address":"24460 1\/4 Lyons Avenue, Santa Clarita, CA 91321","latitude":"34.3770844","longitude":"-118.5621658"}},{"id":"1429080009779","name":"Popsical: A Family Concert in Santa Clarita","location":{"address":"24460 1\/4 Lyons Avenue, Santa Clarita, CA 91321","latitude":"34.3770844","longitude":"-118.5621658"}},{"id":"1425026305039","name":"Popsical: A Family Concert in South Pasadena","location":{"address":"1510 Mission Street, South Pasadena, CA 91030","latitude":"34.1161008","longitude":"-118.1512159"}},{"id":"1425026305039","name":"Popsical: A Family Concert in South Pasadena","location":{"address":"1510 Mission Street, South Pasadena, CA 91030","latitude":"34.1161008","longitude":"-118.1512159"}}]